{
  "city": "Izmit",
  "taxi": {
    "openingFee": 10.0,
    "costPerKm": 4.0
  },
  "duraklar": [
    {
      "id": "bus_otogar",
      "name": "Otogar (Bus)",
      "type": "bus",
      "lat": 40.7752263,
      "lon": 29.9724620,
      "sonDurak": false,
      "nextStops": [
        {
          "stopId": "bus_sekapark",
          "mesafe": 3.5,
          "sure": 10,
          "ucret": 3.0
        }
      ],
      "transfer": {
        "transferStopId": "tram_otogar",
        "transferSure": 2,
        "transferUcret": 0.5
      }
    },
    {
      "id": "bus_sekapark",
      "name": "Sekapark (Bus)",
      "type": "bus",
      "lat": 40.7627481,
      "lon": 29.9115131,
      "sonDurak": false,
      "nextStops": [
        {
          "stopId": "bus_yahyakaptan",
          "mesafe": 2.0,
          "sure": 8,
          "ucret": 2.5
        },
        {
          "stopId": "bus_symbolavm",
          "mesafe": 4.0,
          "sure": 12,
          "ucret": 3.5
        },
        {
          "stopId": "bus_41burda",
          "mesafe": 4.5,
          "sure": 14,
          "ucret": 3.5
        }
      ],
      "transfer": {
        "transferStopId": "tram_sekapark",
        "transferSure": 3,
        "transferUcret": 0.0
      }
    },
    {
      "id": "bus_yahyakaptan",
      "name": "Yahya Kaptan (Bus)",
      "type": "bus",
      "lat": 40.7646964,
      "lon": 29.9702368,
      "sonDurak": false,
      "nextStops": [
        {
          "stopId": "bus_umuttepe",
          "mesafe": 5.0,
          "sure": 12,
          "ucret": 4.0
        }
      ],
      "transfer": {
        "transferStopId": "tram_yahyakaptan",
        "transferSure": 2,
        "transferUcret": 0.0
      }
    },
    {
      "id": "bus_umuttepe",
      "name": "Umuttepe (Bus)",
      "type": "bus",
      "lat": 40.8239465,
      "lon": 29.9197135,
      "sonDurak": true,
      "nextStops": [],
      "transfer": null
    },

    {
      "id": "bus_symbolavm",
      "name": "Symbol AVM (Bus)",
      "type": "bus",
      "lat": 40.7596786,
      "lon": 29.9784296,
      "sonDurak": true,
      "nextStops": [],
      "transfer": null
    },
    {
      "id": "bus_41burda",
      "name": "41 Burda AVM (Bus)",
      "type": "bus",
      "lat": 40.7560363,
      "lon": 29.9462028,
      "sonDurak": true,
      "nextStops": [],
      "transfer": null
    },

    {
      "id": "tram_otogar",
      "name": "Otogar (Tram)",
      "type": "tram",
      "lat": 40.7758544,
      "lon": 29.9758204,
      "sonDurak": false,
      "nextStops": [
        {
          "stopId": "tram_yahyakaptan",
          "mesafe": 1.2,
          "sure": 5,
          "ucret": 2.5
        }
      ],
      "transfer": {
        "transferStopId": "bus_otogar",
        "transferSure": 2,
        "transferUcret": 0.5
      }
    },
    {
      "id": "tram_yahyakaptan",
      "name": "Yahya Kaptan (Tram)",
      "type": "tram",
      "lat": 40.7675010,
      "lon": 29.9741206,
      "sonDurak": false,
      "nextStops": [
        {
          "stopId": "tram_sekapark",
          "mesafe": 2.0,
          "sure": 6,
          "ucret": 2.0
        }
      ],
      "transfer": {
        "transferStopId": "bus_yahyakaptan",
        "transferSure": 2,
        "transferUcret": 0.0
      }
    },
    {
      "id": "tram_sekapark",
      "name": "Sekapark (Tram)",
      "type": "tram",
      "lat": 40.761445,
      "lon": 29.9085477,
      "sonDurak": false,
      "nextStops": [
        {
          "stopId": "tram_halkevi",
          "mesafe": 3.0,
          "sure": 7,
          "ucret": 1.5
        }
      ],
      "transfer": {
        "transferStopId": "bus_sekapark",
        "transferSure": 3,
        "transferUcret": 0.0
      }
    },
    {
      "id": "tram_halkevi",
      "name": "Halkevi (Tram)",
      "type": "tram",
      "lat": 40.7621773,
      "lon": 29.9260517,
      "sonDurak": true,
      "nextStops": [],
      "transfer": {
        "transferStopId": "bus_sekapark",
        "transferSure": 5,
        "transferUcret": 0.5
      }
    }
  ]
}